[{"id":"8","hex_color":"FFCD1C","name":"Kalininskaya","stations":[{"id":"8.189","name":"Novokosino","lat":"55.745113","lng":37.864052,"order":"0"},{"id":"8.88","name":"Novogireevo","lat":"55.752237","lng":"37.814587","order":"1"},{"id":"8.107","name":"Perovo","lat":"55.75098","lng":"37.78422","order":2},{"id":"8.158","name":"Shosse Entuziastov","lat":"55.75809","lng":"37.751703","order":"3"},{"id":"8.1","name":"Aviamotornaya","lat":"55.751933","lng":"37.717444","order":"4"},{"id":"8.112","name":"Ploschad Ilyicha","lat":"55.747115","lng":"37.680726","order":"5"},{"id":"8.78","name":"Marksistskaya","lat":"55.740746","lng":"37.65604","order":"6"},{"id":"8.91","name":"Tretyakovskaya","lat":"55.741125","lng":"37.626142","order":"7"},{"id":"8.594","name":"Petrovskiy Park","lat":55.79233,"lng":"37.55952","order":8},{"id":"8.592","name":"CSKA","lat":"55.78643","lng":"37.53502","order":"9"},{"id":"8.595","name":"Khoroshevskaya","lat":55.77643,"lng":37.51981,"order":10},{"id":"8.593","name":"Shelepikha","lat":"55.75723","lng":"37.52571","order":"11"},{"id":"8.468","name":"Delovoi Centr","lat":"55.7491","lng":"37.5395","order":12},{"id":"8.470","name":"Park Pobedy","lat":"55.736478","lng":"37.514401","order":"13"},{"id":"8.555","name":"Minskaya","lat":55.7232,"lng":"37.5038","order":"14"},{"id":"8.556","name":"Lomonosovskiy Prospekt","lat":"55.7055","lng":"37.5225","order":"15"},{"id":"8.557","name":"Ramenki","lat":"55.6961","lng":"37.505","order":"16"},{"id":"8.607","name":"Michurinskiy Prospekt","lat":"55.6888","lng":"37.485","order":"17"},{"id":"8.608","name":"Ozyornaya","lat":"55.6698","lng":"37.4495","order":"18"},{"id":"8.609","name":"Govorovo","lat":"55.6588","lng":"37.4174","order":"19"},{"id":"8.610","name":"Solntsevo","lat":"55.649","lng":37.3911,"order":"20"},{"id":"8.611","name":"Borovskoe Shosse","lat":"55.647","lng":"37.3701","order":"21"},{"id":"8.612","name":"Novoperedelkino","lat":"55.6385","lng":"37.3544","order":"22"},{"id":"8.613","name":"Rasskazovka","lat":55.6324,"lng":37.3328,"order":23}]},{"id":"2","hex_color":"4FB04F","name":"Zamoskvoretskaya","stations":[{"id":"2.558","name":"Khovrino","lat":"55.8777","lng":"37.4877","order":"0"},{"id":"2.674","name":"Belomorskaya","lat":"55.8651","lng":"37.4764","order":"1"},{"id":"2.125","name":"Rechnoy Vokzal","lat":"55.854152","lng":"37.476728","order":"2"},{"id":"2.29","name":"Vodniy Stadion","lat":"55.838978","lng":"37.487515","order":"3"},{"id":"2.30","name":"Voykovskaya","lat":"55.818923","lng":"37.497791","order":"4"},{"id":"2.133","name":"Sokol","lat":"55.805564","lng":"37.515245","order":"5"},{"id":"2.12","name":"Airport","lat":"55.800441","lng":"37.530477","order":"6"},{"id":"2.34","name":"Dynamo","lat":"55.789704","lng":"37.558212","order":"7"},{"id":"2.19","name":"Belorusskaya","lat":"55.777439","lng":37.582107,"order":"8"},{"id":"2.80","name":"Mayakovskaya","lat":"55.769808","lng":"37.596192","order":"9"},{"id":"2.122","name":"Tverskaya","lat":"55.765343","lng":"37.603918","order":"10"},{"id":"2.99","name":"Teatralnaya","lat":"55.758808","lng":"37.61768","order":"11"},{"id":"2.89","name":"Novokuznetskaya","lat":"55.742391","lng":"37.62928","order":"12"},{"id":"2.101","name":"Paveletskaya","lat":"55.729741","lng":"37.638693","order":"13"},{"id":"2.2","name":"Avtozavodskaya","lat":"55.706634","lng":"37.657008","order":"14"},{"id":"2.512","name":"Technopark","lat":"55.695","lng":"37.664167","order":"15"},{"id":"2.53","name":"Kolomenskaya","lat":"55.677423","lng":"37.663719","order":"16"},{"id":"2.45","name":"Kashirskaya","lat":"55.655745","lng":"37.649683","order":"17"},{"id":"2.42","name":"Kantemirovskaya","lat":"55.636107","lng":"37.656218","order":"18"},{"id":"2.153","name":"Tsarytsino","lat":"55.620982","lng":"37.669612","order":"19"},{"id":"2.96","name":"Orekhovo","lat":"55.61269","lng":"37.695214","order":"20"},{"id":"2.38","name":"Domodedovskaya","lat":"55.610131","lng":"37.717111","order":"21"},{"id":"2.57","name":"Krasnogvardeyskaya","lat":55.614075,"lng":"37.742697","order":"22"},{"id":"2.257","name":"Alma-Atinskaya","lat":"55.63349","lng":"37.765678","order":23}]},{"id":"6","hex_color":"F07E24","name":"Kaluzhsko-Ryzhskaya","stations":[{"id":"6.81","name":"Medvedkovo","lat":"55.888103","lng":37.661562,"order":0},{"id":"6.13","name":"Babushkinskaya","lat":"55.870641","lng":"37.664341","order":"1"},{"id":"6.129","name":"Sviblovo","lat":55.855558,"lng":"37.653379","order":"2"},{"id":"6.24","name":"Botanicheskiy Sad","lat":"55.844597","lng":"37.637811","order":"3"},{"id":"6.27","name":"VDNH","lat":"55.819626","lng":"37.640751","order":"4"},{"id":"6.8","name":"Alekseevskaya","lat":"55.807794","lng":"37.638699","order":"5"},{"id":"6.126","name":"Rizhskaya","lat":"55.792494","lng":"37.636114","order":"6"},{"id":"6.120","name":"Prospekt Mira","lat":"55.781827","lng":"37.633199","order":"7"},{"id":"6.137","name":"Sukharevskaya","lat":"55.772315","lng":"37.63285","order":"8"},{"id":"6.144","name":"Turgenevskaya","lat":"55.765371","lng":"37.636732","order":"9"},{"id":"6.50","name":"Kitay-gorod","lat":"55.756498","lng":"37.631326","order":"10"},{"id":"6.90","name":"Tretyakovskaya","lat":"55.74073","lng":"37.625624","order":"11"},{"id":"6.94","name":"Oktyabrskaya","lat":55.731232,"lng":"37.612851","order":"12"},{"id":"6.157","name":"Shabolovskaya","lat":"55.718828","lng":"37.607892","order":"13"},{"id":"6.74","name":"Leninskiy Prospekt","lat":"55.70678","lng":"37.58499","order":"14"},{"id":"6.3","name":"Akademicheskaya","lat":55.687147,"lng":37.5723,"order":15},{"id":"6.121","name":"Profsoyuznaya","lat":55.677671,"lng":"37.562595","order":"16"},{"id":"6.92","name":"Novye Cheremushki","lat":"55.670077","lng":"37.554493","order":"17"},{"id":"6.41","name":"Kaluzhskaya","lat":"55.656682","lng":"37.540075","order":"18"},{"id":"6.21","name":"Belyaevo","lat":55.642357,"lng":37.526115,"order":19},{"id":"6.56","name":"Konkovo","lat":"55.631857","lng":"37.519156","order":"20"},{"id":"6.140","name":"Tepliy Stan","lat":"55.61873","lng":"37.505912","order":"21"},{"id":"6.164","name":"Yasenevo","lat":"55.606182","lng":"37.5334","order":"22"},{"id":"6.23","name":"Novoyasenevskaya","lat":"55.601947","lng":"37.553017","order":"23"}]},{"id":"1","hex_color":"E42313","name":"Sokolnicheskaya","stations":[{"id":"1.148","name":"Bulvar Rokossovskogo","lat":"55.814916","lng":"37.732227","order":"0"},{"id":"1.155","name":"Cherkizovskaya","lat":"55.802787","lng":"37.744863","order":"1"},{"id":"1.117","name":"Preobrazhenskaya Ploshchad","lat":55.796322,"lng":37.713582,"order":"2"},{"id":"1.134","name":"Sokolniki","lat":"55.789282","lng":"37.679895","order":"3"},{"id":"1.60","name":"Krasnoselskaya","lat":"55.780014","lng":"37.666097","order":"4"},{"id":"1.54","name":"Komsomolskaya","lat":"55.774072","lng":"37.654565","order":"5"},{"id":"1.61","name":"Krasnye Vorota","lat":"55.768307","lng":37.6478,"order":"6"},{"id":"1.143","name":"Chistye Prudy","lat":"55.76499","lng":"37.638293","order":"7"},{"id":"1.66","name":"Lubyanka","lat":"55.759889","lng":"37.625336","order":"8"},{"id":"1.98","name":"Okhotniy Ryad","lat":55.757228,"lng":37.615078,"order":9},{"id":"1.4","name":"Biblioteka Lenina","lat":"55.752123","lng":"37.610388","order":"10"},{"id":"1.64","name":"Kropotkinskaya","lat":"55.745297","lng":"37.604217","order":"11"},{"id":"1.103","name":"Park Kultury","lat":"55.736163","lng":"37.595027","order":"12"},{"id":"1.152","name":"Frunzenskaya","lat":55.727462,"lng":37.58022,"order":13},{"id":"1.135","name":"Sportivnaya","lat":"55.722388","lng":"37.562041","order":14},{"id":"1.165","name":"Vorobievy Gory","lat":"55.709169","lng":"37.557293","order":"15"},{"id":"1.149","name":"Universitet","lat":"55.69329","lng":"37.534511","order":"16"},{"id":"1.118","name":"Prospekt Vernadskogo","lat":"55.676549","lng":"37.504584","order":"17"},{"id":"1.162","name":"Yugo-Zapadnaya","lat":"55.663146","lng":"37.482852","order":"18"},{"id":"1.505","name":"Troparevo","lat":"55.6459","lng":"37.4725","order":"19"},{"id":"1.513","name":"Rumyantsevo","lat":55.633,"lng":"37.4419","order":"20"},{"id":"1.514","name":"Salarievo","lat":"55.6227","lng":"37.424","order":"21"},{"id":"1.678","name":"Filatov Lug","lat":55.5997,"lng":37.4075,"order":22},{"id":"1.679","name":"Prokshino","lat":"55.5813","lng":"37.4425","order":"23"},{"id":"1.680","name":"Olkhovaya","lat":"55.5677","lng":"37.459","order":"24"},{"id":"1.681","name":"Kommunarka","lat":"55.56952","lng":"37.48932","order":"25"}]},{"id":"3","hex_color":"0072BA","name":"Arbatsko-Pokrovskaya","stations":[{"id":"3.159","name":"Shchelkovskaya","lat":"55.809962","lng":"37.798261","order":"0"},{"id":"3.106","name":"Pervomayskaya","lat":"55.794376","lng":"37.799364","order":"1"},{"id":"3.40","name":"Izmaylovskaya","lat":"55.787713","lng":"37.779896","order":"2"},{"id":"3.105","name":"Partizanskaya","lat":"55.788401","lng":"37.74882","order":"3"},{"id":"3.130","name":"Semenovskaya","lat":"55.783096","lng":"37.719289","order":"4"},{"id":"3.161","name":"Elektrozavodskaya","lat":"55.782057","lng":"37.7053","order":"5"},{"id":"3.17","name":"Baumanskaya","lat":"55.772405","lng":"37.67904","order":"6"},{"id":"3.100","name":"Ploshad Revolyutsii","lat":"55.756741","lng":"37.62236","order":"7"},{"id":"3.70","name":"Kurskaya","lat":"55.758564","lng":"37.659039","order":8},{"id":"3.5","name":"Arbatskaya","lat":"55.752312","lng":"37.60349","order":"9"},{"id":"3.131","name":"Smolenskaya","lat":"55.747713","lng":"37.583802","order":"10"},{"id":"3.47","name":"Kievskaya","lat":"55.743117","lng":"37.564132","order":"11"},{"id":"3.173","name":"Park Pobedy","lat":55.735679,"lng":37.516865,"order":12},{"id":"3.176","name":"Slavyanskiy Bulvar","lat":"55.729542","lng":"37.470973","order":"13"},{"id":"3.69","name":"Kuntsevskaya","lat":"55.730634","lng":"37.445123","order":"14"},{"id":"3.84","name":"Molodezhnaya","lat":"55.741375","lng":"37.415627","order":"15"},{"id":"3.65","name":"Krylatskoe","lat":"55.756842","lng":"37.408139","order":"16"},{"id":"3.174","name":"Strogino","lat":"55.803831","lng":"37.402405","order":"17"},{"id":"3.181","name":"Myakinino","lat":"55.823342","lng":37.385214,"order":"18"},{"id":"3.182","name":"Volokolamskaya","lat":"55.835154","lng":"37.382453","order":"19"},{"id":"3.183","name":"Mitino","lat":"55.846098","lng":"37.36122","order":"20"},{"id":"3.463","name":"Pyatnitskoe Shosse","lat":"55.853634","lng":"37.353108","order":"21"}]},{"id":"4","hex_color":"1EBCEF","name":"Filevskaya","stations":[{"id":"4.471","name":"Kuntsevskaya","lat":"55.730815","lng":"37.446754","order":"0"},{"id":"4.110","name":"Pionerskaya","lat":"55.736027","lng":"37.466728","order":"1"},{"id":"4.150","name":"Filevskiy Park","lat":55.739665,"lng":37.483902,"order":2},{"id":"4.14","name":"Bagrationovskaya","lat":"55.743544","lng":"37.497042","order":"3"},{"id":"4.151","name":"Fili","lat":"55.746763","lng":"37.514035","order":"4"},{"id":"4.73","name":"Kutuzovskaya","lat":"55.740544","lng":37.5341,"order":"5"},{"id":"4.136","name":"Studencheskaya","lat":"55.738761","lng":"37.54842","order":"6"},{"id":"4.48","name":"Kievskaya","lat":"55.743168","lng":"37.565425","order":"7"},{"id":"4.132","name":"Smolenskaya","lat":"55.749083","lng":"37.582173","order":"8"},{"id":"4.11","name":"Arbatskaya","lat":"55.752122","lng":"37.601553","order":"9"},{"id":"4.6","name":"Aleksandrovskiy Sad","lat":"55.752255","lng":"37.608775","order":"10"},{"id":"4.172","name":"Vystavochnaya","lat":55.750243,"lng":37.542641,"order":"11"},{"id":"4.179","name":"Mezhdunarodnaya","lat":"55.748324","lng":"37.533282","order":"12"}]},{"id":"9","hex_color":"ADACAC","name":"Serpukhovsko-Timiryazevskaya","stations":[{"id":"9.9","name":"Altufievo","lat":"55.899034","lng":"37.586473","order":"0"},{"id":"9.22","name":"Bibirevo","lat":55.883868,"lng":37.603011,"order":1},{"id":"9.97","name":"Otradnoe","lat":"55.864273","lng":"37.605066","order":"2"},{"id":"9.28","name":"Vladykino","lat":"55.848236","lng":"37.590451","order":"3"},{"id":"9.108","name":"Petrovsko-Razumovskaya","lat":55.836565,"lng":"37.575512","order":"4"},{"id":"9.141","name":"Timiryazevskaya","lat":"55.81866","lng":"37.574498","order":"5"},{"id":"9.35","name":"Dmitrovskaya","lat":"55.808056","lng":"37.581734","order":"6"},{"id":"9.128","name":"Savelovskaya","lat":"55.794054","lng":"37.587163","order":"7"},{"id":"9.83","name":"Mendeleevskaya","lat":"55.781999","lng":"37.599141","order":"8"},{"id":"9.154","name":"Tsvetnoi Bulvar","lat":"55.771653","lng":"37.620466","order":"9"},{"id":"9.123","name":"Chekhovskaya","lat":"55.765747","lng":"37.608493","order":"10"},{"id":"9.7","name":"Borovitskaya","lat":"55.750399","lng":"37.60934","order":"11"},{"id":"9.115","name":"Polyanka","lat":"55.736795","lng":"37.618594","order":"12"},{"id":"9.37","name":"Serpukhovskaya","lat":"55.726548","lng":37.624792,"order":13},{"id":"9.142","name":"Tulskaya","lat":"55.70961","lng":"37.622569","order":"14"},{"id":"9.85","name":"Nagatinskaya","lat":"55.682099","lng":"37.620917","order":"15"},{"id":"9.86","name":"Nagornaya","lat":"55.672962","lng":"37.610397","order":"16"},{"id":"9.87","name":"Nakhimovsliy Prospekt","lat":"55.662379","lng":"37.605274","order":"17"},{"id":"9.43","name":"Sevastopolskaya","lat":"55.651451","lng":"37.59809","order":"18"},{"id":"9.156","name":"Chertanovskaya","lat":"55.640538","lng":"37.606065","order":"19"},{"id":"9.163","name":"Yuzhnaya","lat":"55.622436","lng":"37.609047","order":20},{"id":"9.116","name":"Prazhskaya","lat":"55.610962","lng":"37.602386","order":"21"},{"id":"9.147","name":"Ulitsa Akademika Yangelya","lat":"55.596753","lng":"37.601498","order":"22"},{"id":"9.10","name":"Annino","lat":"55.583477","lng":"37.596999","order":"23"},{"id":"9.170","name":"Bulvar Dmitriya Donskogo","lat":"55.568201","lng":"37.576856","order":"24"}]},{"id":"7","hex_color":"943E90","name":"Tagansko-Krasnopresnenskaya","stations":[{"id":"7.111","name":"Planernaya","lat":"55.859676","lng":"37.436808","order":"0"},{"id":"7.138","name":"Skhodnenskaya","lat":"55.84926","lng":"37.44076","order":"1"},{"id":"7.145","name":"Tushinskaya","lat":"55.825479","lng":"37.437024","order":"2"},{"id":"7.507","name":"Spartak","lat":"55.8182","lng":"37.4352","order":"3"},{"id":"7.160","name":"Shchukinskaya","lat":"55.8094","lng":"37.463241","order":"4"},{"id":"7.95","name":"Oktyabrskoe Pole","lat":"55.793581","lng":"37.493317","order":"5"},{"id":"7.114","name":"Polezhaevskaya","lat":"55.777201","lng":"37.517895","order":"6"},{"id":"7.18","name":"Begovaya","lat":"55.773505","lng":"37.545518","order":"7"},{"id":"7.146","name":"Ulitsa 1905 goda","lat":"55.763944","lng":"37.562271","order":"8"},{"id":"7.16","name":"Barrikadnaya","lat":"55.760793","lng":"37.581242","order":"9"},{"id":"7.124","name":"Pushkinskaya","lat":"55.765607","lng":37.604356,"order":"10"},{"id":"7.67","name":"Kuznetsiy Most","lat":"55.761498","lng":"37.624423","order":"11"},{"id":"7.51","name":"Kitay-gorod","lat":"55.75436","lng":"37.633877","order":"12"},{"id":"7.77","name":"Taganskaya","lat":"55.739502","lng":"37.653605","order":"13"},{"id":"7.62","name":"Proletarskaya","lat":"55.731546","lng":"37.666917","order":"14"},{"id":"7.31","name":"Volgogradskiy Prospekt","lat":"55.725546","lng":"37.685197","order":"15"},{"id":"7.139","name":"Tekstilshchiki","lat":"55.709211","lng":"37.732117","order":"16"},{"id":"7.68","name":"Kuzminki","lat":"55.705493","lng":"37.763295","order":"17"},{"id":"7.127","name":"Ryazanskiy Prospekt","lat":"55.716139","lng":"37.792694","order":"18"},{"id":"7.33","name":"Vykhino","lat":"55.715983","lng":37.816788,"order":"19"},{"id":"7.464","name":"Lermontovskiy Prospekt","lat":"55.702036","lng":37.851044,"order":20},{"id":"7.465","name":"Zhulebino","lat":"55.684722","lng":37.855833,"order":"21"},{"id":"7.508","name":"Kotelniki","lat":"55.6743","lng":"37.8582","order":"22"}]},{"id":"5","hex_color":"915133","name":"Koltsevaya","stations":[{"id":"5.82","name":"Novoslobodskaya","lat":"55.779606","lng":"37.601252","order":"0"},{"id":"5.119","name":"Prospekt Mira","lat":55.779584,"lng":"37.633646","order":"1"},{"id":"5.55","name":"Komsomolskaya","lat":"55.775672","lng":"37.654772","order":"2"},{"id":"5.71","name":"Kurskaya","lat":"55.758631","lng":"37.661059","order":"3"},{"id":"5.76","name":"Taganskaya","lat":"55.742396","lng":"37.653334","order":"4"},{"id":"5.102","name":"Paveletskaya","lat":"55.731414","lng":"37.636294","order":"5"},{"id":"5.36","name":"Dobryninskaya","lat":"55.728994","lng":"37.622533","order":"6"},{"id":"5.93","name":"Oktyabrskaya","lat":"55.729264","lng":"37.611049","order":"7"},{"id":"5.104","name":"Park Kultury","lat":"55.735221","lng":"37.593095","order":"8"},{"id":"5.49","name":"Kievskaya","lat":"55.74361","lng":"37.56735","order":"10"},{"id":"5.58","name":"Krasnopresnenskaya","lat":"55.760378","lng":"37.577114","order":"11"},{"id":"5.20","name":"Belorusskaya","lat":55.775179,"lng":37.582303,"order":"12"}]},{"id":"10","hex_color":"BED12C","name":"Lyublinsko-Dmitrievskaya","stations":[{"id":"10.597","name":"Seligerskaya","lat":"55.86483","lng":37.55005,"order":"0"},{"id":"10.598","name":"Verkhnie Lihobory","lat":55.85566,"lng":"37.56282","order":"1"},{"id":"10.596","name":"Okruzhnaya","lat":"55.848889","lng":"37.571111","order":"2"},{"id":"10.548","name":"Petrovsko-Razumovskaya","lat":"55.836667","lng":"37.575556","order":"3"},{"id":"10.547","name":"Fonvisinskaya","lat":"55.822778","lng":"37.588056","order":"4"},{"id":"10.546","name":"Butyrskaya","lat":"55.813333","lng":"37.602778","order":"5"},{"id":"10.185","name":"Maryina Roshcha","lat":"55.793723","lng":"37.61618","order":"6"},{"id":"10.184","name":"Dostoevskaya","lat":"55.781667","lng":"37.613889","order":"7"},{"id":"10.177","name":"Trubnaya","lat":"55.76771","lng":"37.621926","order":"8"},{"id":"10.175","name":"Sretenskiy Bulvar","lat":"55.766106","lng":"37.635688","order":"9"},{"id":"10.72","name":"Chkalovskaya","lat":"55.755951","lng":"37.659293","order":10},{"id":"10.113","name":"Rimskaya","lat":"55.747027","lng":"37.679996","order":"11"},{"id":"10.63","name":"Krestyanskaya Zastava","lat":"55.732278","lng":"37.665325","order":"12"},{"id":"10.39","name":"Dubrovka","lat":"55.71807","lng":"37.676259","order":"13"},{"id":"10.52","name":"Kozhukhovskaya","lat":"55.706156","lng":"37.68544","order":"14"},{"id":"10.109","name":"Pechatniki","lat":"55.692921","lng":"37.728338","order":"15"},{"id":"10.32","name":"Volzhskaya","lat":"55.690446","lng":"37.754314","order":"16"},{"id":"10.75","name":"Lyublino","lat":"55.676596","lng":"37.761639","order":17},{"id":"10.25","name":"Bratislavskaya","lat":"55.658817","lng":"37.748415","order":"18"},{"id":"10.79","name":"Maryino","lat":"55.649158","lng":"37.743844","order":"19"},{"id":"10.187","name":"Borisovo","lat":"55.6325","lng":"37.743333","order":"20"},{"id":"10.188","name":"Shipilovskaya","lat":"55.621667","lng":"37.743611","order":"21"},{"id":"10.186","name":"Zyablikovo","lat":"55.611944","lng":37.745278,"order":22}]},{"id":"11","hex_color":"88CDCF","name":"Kakhovskaya","stations":[{"id":"11.46","name":"Kashirskaya","lat":"55.654327","lng":"37.647705","order":"0"},{"id":"11.26","name":"Varshavskaya","lat":"55.653294","lng":"37.619522","order":"1"},{"id":"11.44","name":"Kakhovskaya","lat":"55.652923","lng":"37.596573","order":2}]},{"id":"12","hex_color":"BAC8E8","name":"Butovskaya","stations":[{"id":"12.167","name":"Buninskaya Alleya","lat":"55.537977","lng":"37.515899","order":"0"},{"id":"12.168","name":"Ulitsa Gorchakova","lat":"55.542281","lng":"37.532063","order":"1"},{"id":"12.169","name":"Bulvar Admirala Ushakova","lat":"55.545207","lng":"37.542329","order":"2"},{"id":"12.166","name":"Ulitsa Skobelevskaya","lat":"55.548103","lng":"37.552721","order":"3"},{"id":"12.171","name":"Ulitsa Starokachalovskaya","lat":"55.569194","lng":"37.576074","order":"4"},{"id":"12.466","name":"Lesoparkovaya","lat":"55.581656","lng":"37.577816","order":"5"},{"id":"12.467","name":"Bitsevskiy Park","lat":"55.600066","lng":"37.556058","order":"6"}]},{"id":"95","hex_color":"F9BCD1","name":"Moskovskoe Centralnoe Koltso","stations":[{"id":"95.515","name":"Okruzhnaya","lat":"55.848889","lng":"37.571111","order":"0"},{"id":"95.516","name":"Vladykino","lat":"55.847222","lng":"37.591944","order":"1"},{"id":"95.517","name":"Botanicheskiy Sad","lat":"55.845556","lng":"37.640278","order":"2"},{"id":"95.518","name":"Rostokino","lat":"55.839444","lng":"37.667778","order":"3"},{"id":"95.519","name":"Belokamennaya","lat":"55.83","lng":"37.700556","order":"4"},{"id":"95.520","name":"Bulvar Rokossovskogo","lat":"55.817222","lng":"37.736944","order":"5"},{"id":"95.521","name":"Lokomotiv","lat":55.803219,"lng":"37.745742","order":"6"},{"id":"95.522","name":"Izmaylovo","lat":"55.788611","lng":"37.742778","order":"7"},{"id":"95.523","name":"Sokolinaya Gora","lat":"55.77","lng":"37.745278","order":"8"},{"id":"95.524","name":"Shosse Entuziastov","lat":"55.758633","lng":"37.748477","order":9},{"id":"95.525","name":"Andronovka","lat":"55.741111","lng":"37.734444","order":"10"},{"id":"95.526","name":"Nizhegorodskaya","lat":55.732222,"lng":37.72825,"order":"11"},{"id":"95.527","name":"Novokhohlovskaya","lat":"55.723889","lng":"37.716111","order":"12"},{"id":"95.528","name":"Ugreshskaya","lat":"55.718333","lng":"37.697778","order":"13"},{"id":"95.529","name":"Dubrovka","lat":"55.71268","lng":"37.677775","order":"14"},{"id":"95.530","name":"Avtozavodskaya","lat":"55.70631","lng":"37.66314","order":"15"},{"id":"95.531","name":"ZIL","lat":"55.698333","lng":"37.648333","order":"16"},{"id":"95.532","name":"Verkhnie Kotly","lat":"55.69","lng":"37.618889","order":"17"},{"id":"95.533","name":"Krymskaya","lat":"55.690038","lng":"37.605","order":"18"},{"id":"95.534","name":"Ploschad Gagarina","lat":"55.706944","lng":"37.585833","order":"19"},{"id":"95.535","name":"Luzhniki","lat":"55.720278","lng":"37.563056","order":"20"},{"id":"95.536","name":"Kutuzovskaya","lat":"55.740833","lng":"37.533333","order":"21"},{"id":"95.537","name":"Delovoi Centr","lat":"55.747222","lng":"37.532222","order":"22"},{"id":"95.538","name":"Shelepikha","lat":"55.7575","lng":"37.525556","order":"23"},{"id":"95.539","name":"Khoroshevo","lat":55.777222,"lng":"37.507222","order":"24"},{"id":"95.540","name":"Zorge","lat":"55.787778","lng":37.504444,"order":25},{"id":"95.541","name":"Panfilovskaya","lat":"55.799167","lng":"37.498889","order":"26"},{"id":"95.542","name":"Streshnevo","lat":"55.813611","lng":"37.486944","order":"27"},{"id":"95.543","name":"Baltiyskaya","lat":"55.825833","lng":"37.496111","order":"28"},{"id":"95.544","name":"Koptevo","lat":"55.839637","lng":"37.520037","order":"29"},{"id":"95.545","name":"Likhobory","lat":"55.847222","lng":"37.551389","order":"30"}]},{"id":"96","hex_color":"006DA8","name":"Monorels","stations":[{"id":"96.549","name":"Timiryazevskaya","lat":"55.819049","lng":"37.578882","order":"0"},{"id":"96.550","name":"Ulitsa Milashenkova","lat":"55.821876","lng":"37.591206","order":1},{"id":"96.551","name":"Telecentr","lat":"55.821795","lng":"37.608975","order":"2"},{"id":"96.552","name":"Ulitsa Akademika Koroleva","lat":55.821821,"lng":"37.627167","order":"3"},{"id":"96.553","name":"Vystavochnyi Centr","lat":"55.824086","lng":"37.638494","order":"4"},{"id":"96.554","name":"Ulitsa Sergeya Eizenshteina","lat":"55.829305","lng":"37.644997","order":"5"}]},{"id":"97","hex_color":"88CDCF","name":"Bolshaya Koltsevaya Liniya","stations":[{"id":"97.599","name":"Petrovskiy Park","lat":"55.79233","lng":"37.55952","order":"0"},{"id":"97.600","name":"CSKA","lat":"55.78643","lng":"37.53502","order":"1"},{"id":"97.601","name":"Khoroshevskaya","lat":"55.77643","lng":"37.51981","order":"2"},{"id":"97.602","name":"Shelepikha","lat":55.75723,"lng":37.52571,"order":"3"},{"id":"97.603","name":"Delovoi Centr","lat":"55.7491","lng":37.5395,"order":"4"}]},{"id":"98","hex_color":"CC0066","name":"Nekrasovskaya","stations":[{"id":"98.675","name":"Kosino","lat":55.7026,"lng":37.8511,"order":0},{"id":"98.676","name":"Ulitsa Dmitrievskogo","lat":"55.7093","lng":"37.8792","order":"1"},{"id":"98.677","name":"Lukhmanovskaya","lat":"55.7078","lng":"37.9004","order":"2"},{"id":"98.641","name":"Nekrasovka","lat":"55.7029","lng":"37.9264","order":3}]}]